Scientific name	Lat	Lng	Date	Id	Geoprivacy	Quality grade
Oogenius chilensis	-33.57745966	-70.39166593	2023-04-22	156334847	None	research
Mimus thenca	-33.58155434	-70.39592743	2023-04-22	156333025	open	research
Mimus thenca	-33.58121782	-70.39709176	2023-04-22	156333023	open	research
Daptrius chimango	-33.57855419	-70.39413061	2023-04-22	156333021	open	research
Pyrope pyrope	-33.5811201	-70.39808323	2023-04-22	156333017	open	research
Orthogonoderes	-33.57739104	-70.39174891	2023-04-22	156329120	None	needs_id
Icerya	-33.58489291	-70.37282218	2023-04-02	155035408	None	needs_id
Praocis	-33.57791902	-70.38767912	2023-04-02	153637019	None	needs_id
Sicarius fumosus	-33.5834341	-70.38095296	2023-04-02	153631424	None	research
Mogoplistinae	-33.58326701	-70.38218492	2023-04-02	153631216	None	needs_id
Theraphosinae	-33.58205764	-70.3806311	2023-04-02	153630847	None	needs_id
Brachymyrmex	-33.58183587	-70.37948568	2023-04-02	153630498	None	needs_id
Bothriurus	-33.58109232	-70.38243354	2023-04-02	153629997	None	needs_id
Pachylus	-33.58239729	-70.38138212	2023-04-02	153629512	None	needs_id
Colliguaja odorifera	-33.5816802	-70.37924829	2023-04-02	153628210	None	research
Bubo magellanicus	-33.58365116	-70.3639736	2023-03-02	152762365	open	research
Tropaeolum	-33.53723386	-70.38707312	2022-12-12	152370907	None	needs_id
Schizanthus hookeri	-33.50187529	-70.40610373	2022-12-13	152369874	None	research
Colliguaja odorifera	-33.53481006	-70.38600393	2022-11-24	152369557	None	research
Rachiptera limbata	-33.55441961	-70.37801497	2009-11-14	152367832	None	research
Bothriurus	-33.577814	-70.38975167	2023-03-12	150979659	None	needs_id
Perusia inusta	-33.57657197	-70.402938	2023-02-24	149575708	None	research
Liolaemus tenuis	-33.557615	-70.398346	2023-02-04	148353277	None	research
Aquarius chilensis	-33.556909	-70.398646	2023-02-04	148353276	None	research
Aquarius chilensis	-33.556319	-70.398711	2023-02-04	148353271	None	research
Daptrius chimango	-33.558706	-70.397445	2023-02-04	148353270	open	research
Bombus terrestris	-33.55673	-70.398839	2023-02-04	148353268	None	research
Polistes buyssoni	-33.56513412	-70.39825995	2023-02-04	148353264	None	research
Pepsis	-33.56431165	-70.39604981	2023-02-04	148353262	None	needs_id
Liolaemus tenuis	-33.556373	-70.397895	2023-02-04	148353261	None	research
Megarhyssa	-33.58096622	-70.3965222	2023-02-07	148274876	None	needs_id
Cylindrophora maulica	-33.557639	-70.39812	2023-02-04	148219756	None	research
Philodryas chamissonis	-33.56533085	-70.3968652	2023-01-24	147742640	open	research
Agaricales	-33.57747805	-70.39194024	2023-01-22	147133255	None	needs_id
Podanthus mitiqui	-33.57726285	-70.39206119	2023-01-22	147125214	None	needs_id
Escallonia	-33.57721851	-70.39183413	2023-01-22	147125122	None	needs_id
Orthoptera	-33.58539167	-70.38901111	2022-12-24	146787064	None	needs_id
Coptopteryx gayi	-33.58538611	-70.38899444	2023-01-11	146786813	None	research
Rhionaeschna	-33.58833611	-70.38944444	2023-01-15	146786783	None	needs_id
Lycosinae	-33.58538611	-70.38903056	2023-01-16	146786685	None	needs_id
Hirmoneuropsis brevirostrata	-33.576419	-70.40299297	2023-01-14	146529414	None	research
Leptoglossus chilensis	-33.576377	-70.40292997	2023-01-10	146292360	None	research
Proscopiidae	-33.5764046	-70.4030538	2023-01-09	146206731	None	needs_id
Liolaemus chiliensis	-33.5576791	-70.39840344	2023-01-08	146198711	None	research
Cladodes flabellata	-33.576393	-70.402984	2023-01-04	145842367	None	research
Cicadoidea	-33.57642297	-70.40306497	2023-01-04	145841157	None	needs_id
Leistes loyca	-33.58332464	-70.36202062	2022-12-15	144957082	open	research
Leistes loyca	-33.58477175	-70.36364436	2022-12-15	144924581	open	research
Troglodytes aedon	-33.58804601	-70.36633898	2022-12-15	144924353	open	research
Ormiscodes amphimone	-33.57791111	-70.36479604	2022-11-30	144085669	None	needs_id
Pachylus	-33.576453	-70.40298797	2022-12-03	143560182	None	needs_id
Plantae	-33.5866808	-70.3929475	2022-12-02	143526074	None	needs_id
Bubo magellanicus	-33.57865441	-70.36117908	2022-10-26	143402981	open	research
Alstroemeria ligtu	-33.57691697	-70.39227191	2022-11-27	143151047	None	research
Neopasiphaeinae	-33.58116599	-70.39629854	2022-11-13	141983462	None	needs_id
Cerceris	-33.581206	-70.3961176	2022-11-13	141983460	None	needs_id
Cyclorrhapha	-33.58132687	-70.39618857	2022-11-13	141983459	None	needs_id
Silybum marianum	-33.57903143	-70.39616635	2022-11-13	141983458	open	research
Callipepla californica	-33.57904763	-70.39518	2022-11-13	141983456	open	research
Elaenia albiceps chilensis	-33.57871688	-70.39555464	2022-11-13	141983455	open	research
Mummuciidae	-33.57868785	-70.39510219	2022-11-13	141983454	None	needs_id
Zephyranthes	-33.57859787	-70.39511579	2022-11-13	141983453	None	needs_id
Ectinogonia buquetii	-33.57825245	-70.39394813	2022-11-13	141983451	None	research
Tytonidae	-33.577876	-70.393631	2022-11-13	141983450	None	needs_id
Cichorieae	-33.57688213	-70.39350174	2022-11-13	141983449	None	needs_id
Brassicaceae	-33.576638	-70.39356409	2022-11-13	141983448	None	needs_id
Colletes	-33.58130186	-70.39596203	2022-11-13	141983447	None	needs_id
Colliguaja odorifera	-33.57759709	-70.39129623	2022-11-13	141950947	None	research
Ormiscodes amphimone	-33.5774876	-70.39129374	2022-11-13	141950946	None	research
Troglodytes aedon	-33.57741385	-70.39073048	2022-11-13	141950945	open	research
Aphididae	-33.57739233	-70.39091555	2022-11-13	141950943	None	needs_id
Platycheirus fenestrata	-33.57788565	-70.39093701	2022-11-13	141950942	None	research
Stenoparedra	-33.57779966	-70.39075462	2022-11-13	141950941	None	needs_id
Lecanoromycetes	-33.5774141	-70.39114354	2022-11-13	141950940	None	needs_id
Alstroemeria ligtu	-33.5777046	-70.39067912	2022-11-13	141950938	None	research
Liolaemus monticola	-33.57780069	-70.39092857	2022-11-13	141950937	open	research
Pottiaceae	-33.57762415	-70.39064614	2022-11-13	141950936	None	needs_id
Alstroemeria	-33.5778288	-70.39107262	2022-11-13	141950935	None	needs_id
Magnoliopsida	-33.57752565	-70.39113699	2022-11-13	141950934	None	needs_id
Alonsoa meridionalis	-33.57749365	-70.39101361	2022-11-13	141950933	None	research
Cestrum parqui	-33.57769731	-70.39115198	2022-11-13	141950931	open	research
Plantae	-33.5776957	-70.39098032	2022-11-13	141950927	None	needs_id
Stachys grandidentata	-33.57770589	-70.3908167	2022-11-13	141950926	None	research
Oogenius chilensis	-33.57761453	-70.39101835	2022-11-13	141950924	None	research
Insecta	-33.57759218	-70.39086278	2022-11-13	141950920	None	needs_id
Elaphroptera	-33.5775235	-70.39086106	2022-11-13	141950919	None	needs_id
Colletia hystrix	-33.577533	-70.390735	2022-11-13	141950918	None	research
Stenoparedra	-33.57782592	-70.39406214	2022-11-13	141940697	None	needs_id
Animalia	-33.57806055	-70.39434646	2022-11-13	141940696	None	needs_id
Plantae	-33.57792424	-70.3942955	2022-11-13	141940695	None	needs_id
Plantae	-33.57800916	-70.3940398	2022-11-13	141940694	None	needs_id
Bryophyta	-33.57788849	-70.3943268	2022-11-13	141940692	None	needs_id
Escallonia pulverulenta	-33.57799798	-70.39436344	2022-11-13	141940691	open	research
Adiantum chilense sulphureum	-33.57787061	-70.39419178	2022-11-13	141940690	None	research
Lecanoromycetes	-33.57793541	-70.39406571	2022-11-13	141940688	None	needs_id
Lecanoromycetes	-33.57806055	-70.39422933	2022-11-13	141940687	None	needs_id
Lithraea caustica	-33.5780248	-70.39410863	2022-11-13	141940686	open	research
Plantae	-33.577962	-70.394173	2022-11-13	141940684	None	needs_id
Asteraceae	-33.57797764	-70.39419982	2022-11-13	141940683	None	needs_id
Pasithea caerulea	-33.577962	-70.394173	2022-11-13	141940682	None	research
Phacelia secunda	-33.57992778	-70.39653889	2022-11-13	141937076	None	research
Senecio microphyllus	-33.58003056	-70.39665833	2022-11-13	141937075	None	needs_id
Leucocoryne ixioides	-33.57995278	-70.39538611	2022-11-13	141937074	None	research
Asteraceae	-33.57945278	-70.39550278	2022-11-13	141937073	None	needs_id
Schinus polygama	-33.58001944	-70.39605	2022-11-13	141937072	open	research
Leucheria	-33.58001667	-70.39620556	2022-11-13	141937071	None	needs_id
Haplopappus	-33.58003611	-70.396275	2022-11-13	141937070	None	needs_id
Scyphanthus elegans	-33.58025	-70.39669444	2022-11-13	141937068	None	research
Zephyranthes	-33.58025	-70.39669444	2022-11-13	141935721	None	needs_id
Calceolaria thyrsiflora	-33.58110556	-70.39661944	2022-11-13	141935622	None	research
Vanessa carye	-33.57863	-70.394399	2022-11-13	141934269	None	research
Elaphroptera	-33.57982	-70.395179	2022-11-13	141934015	None	needs_id
Manduca sexta caestri	-33.57640364	-70.4030064	2022-11-11	141692792	None	research
Trevoa quinquenervia	-33.57868681	-70.3945414	2022-10-29	141506640	None	research
Schinus polygama	-33.57864519	-70.39495982	2022-10-29	141506250	open	research
Cestrum parqui	-33.5769977	-70.39393555	2022-10-29	141506040	open	research
Podanthus mitiqui	-33.57832676	-70.39325159	2022-10-29	141505830	None	research
Ageratina glechonophylla	-33.57637814	-70.39465137	2022-10-29	141505429	None	research
Trichocereus chiloensis	-33.57627144	-70.40306293	2022-11-05	141174943	None	research
Mimus thenca	-33.57664546	-70.40297896	2022-07-14	141162473	open	research
Anairetes parulus	-33.57646613	-70.40304031	2022-10-21	141161779	open	research
Rosa canina	-33.57536582	-70.40237781	2021-10-31	141161279	None	needs_id
Chiasmetes limae	-33.57648568	-70.40307451	2022-01-14	141160636	None	research
Polistes buyssoni	-33.5764206	-70.40321566	2022-02-04	141160194	None	research
Coptopteryx gayi	-33.57652758	-70.40317543	2022-01-14	141159880	None	research
Phoracantha recurva	-33.57650607	-70.40305573	2022-02-05	141159535	None	research
Bothriurus chilensis	-33.57638037	-70.40304702	2021-02-28	141159081	None	needs_id
Euathlus	-33.5763999	-70.4030615	2021-04-24	141158097	None	needs_id
Noctuidae	-33.57644238	-70.40303025	2021-08-28	141157314	None	needs_id
Polythysana cinerascens	-33.57642842	-70.4030212	2021-03-13	141156572	None	research
Cercophana venusta	-33.57651049	-70.40300699	2020-04-01	141155749	None	research
Geometridae	-33.57821333	-70.37359667	2022-10-25	141104866	None	needs_id
Proscopiidae	-33.579045	-70.38799167	2022-10-26	140932156	None	needs_id
Cistanthe grandiflora	-33.58399268	-70.38027637	2021-08-15	140924634	None	research
Stachys grandidentata	-33.55661087	-70.38378144	2021-09-26	140924575	None	research
Asteraceae	-33.58229526	-70.38043512	2021-09-25	140924467	None	needs_id
Alstroemeria	-33.57619531	-70.39607621	2022-09-10	140924399	None	needs_id
Stellaria chilensis	-33.57677997	-70.3960721	2022-09-10	140924164	None	research
Liolaemus tenuis	-33.57519749	-70.39738907	2022-09-10	140924123	None	research
Psyllidae	-33.57818458	-70.37553582	2022-10-26	140186200	None	needs_id
Thomisidae	-33.5776447	-70.37207311	2022-10-25	140186199	None	needs_id
Cicadellidae	-33.5771799	-70.36962694	2022-10-25	140186198	None	needs_id
Elaphroptera	-33.57542791	-70.38559145	2022-10-25	140186197	None	needs_id
Thomisidae	-33.57543405	-70.38735097	2022-10-25	140186196	None	needs_id
Puya alpestris zoellneri	-33.57778667	-70.37484667	2022-10-25	140157734	None	research
Escallonia pulverulenta	-33.579025	-70.38798667	2022-10-26	140157647	open	needs_id
Cistanthe	-33.57655	-70.36755333	2022-10-25	140157535	None	needs_id
Mutisia rosea	-33.57747167	-70.37026167	2022-10-25	140157359	None	needs_id
Angiospermae	-33.57774667	-70.37132167	2022-10-25	140157292	None	needs_id
Leucocoryne	-33.57760333	-70.37152167	2022-10-25	140157238	None	needs_id
Salpiglossis sinuata	-33.41392771	-70.2437873	2021-10-31	140057130	None	research
Chloraea chrysantha	-33.5807418	-70.40824682	2022-10-23	139978857	None	research
Liolaemus chiliensis	-33.5807418	-70.40824682	2018-09-08	139971499	None	research
Quillaja saponaria	-33.5807418	-70.40824682	2019-12-05	139965568	open	research
Phrygilus gayi	-33.5807418	-70.40824682	2018-08-03	139938686	open	research
Metriopelia melanoptera	-33.5807418	-70.40824682	2022-01-22	139938623	open	research
Troglodytes aedon chilensis	-33.5807418	-70.40824682	2021-10-17	139938566	open	research
Liolaemus tenuis	-33.5807418	-70.40824682	2021-10-17	139938388	None	research
Daptrius megalopterus	-33.5807418	-70.40824682	2019-05-04	139938284	open	research
Nycticorax nycticorax obscurus	-33.5807418	-70.40824682	2021-11-01	139938230	open	research
Geranoaetus melanoleucus	-33.5807418	-70.40824682	2022-01-22	139938128	open	research
Kageneckia oblonga	-33.5807418	-70.40824682	2021-10-30	139938087	open	research
Elanus leucurus	-33.5807418	-70.40824682	2018-08-23	139937926	open	research
Liolaemus tenuis	-33.5807418	-70.40824682	2022-03-30	139937832	None	research
Liolaemus monticola	-33.5807418	-70.40824682	2021-10-21	139937480	open	research
Escallonia pulverulenta	-33.5807418	-70.40824682	2021-12-04	139937344	open	research
Ectinogonia buquetii	-33.5807418	-70.40824682	2021-11-01	139937229	None	research
Argyrophorus argenteus	-33.46183379	-70.51209687	2022-01-22	139937152	None	research
Proustia cuneifolia	-33.63339002	-70.34934785	2022-01-22	139937102	None	needs_id
Lasionota	-33.5807418	-70.40824682	2021-10-30	139936967	None	needs_id
Quinchamalium chilense	-33.5807418	-70.40824682	2021-10-30	139936618	None	research
Cerastium arvense	-33.5807418	-70.40824682	2021-10-22	139936511	open	needs_id
Alonsoa meridionalis	-33.5807418	-70.40824682	2021-10-03	139936249	None	research
Chloraea galeata	-33.5807418	-70.40824682	2021-10-30	139935950	None	research
Loasa placei	-33.5807418	-70.40824682	2022-10-23	139894350	None	research
Solanum crispum	-33.5807418	-70.40824682	2022-09-19	139892448	None	research
Stellaria chilensis	-33.5807418	-70.40824682	2022-09-19	139892380	None	research
Colletia hystrix	-33.63339002	-70.34934785	2022-09-19	139892164	None	needs_id
Calceolaria corymbosa	-33.5807418	-70.40824682	2022-10-08	139890706	None	research
Cistanthe grandiflora	-33.5807418	-70.40824682	2022-10-22	139889436	None	research
Pasithea caerulea	-33.5807418	-70.40824682	2022-10-22	139886164	None	research
Tyto alba	-33.5807418	-70.40824682	2022-08-20	139886038	open	research
Escallonia pulverulenta	-33.5807418	-70.40824682	2022-08-27	139885845	open	needs_id
Azara petiolaris	-33.5807418	-70.40824682	2022-08-27	139885716	open	research
Tropaeolum tricolor	-33.5807418	-70.40824682	2022-09-19	139885240	None	research
Gavilea longibracteata	-33.5807418	-70.40824682	2022-09-19	139885012	None	research
Adiantum chilense	-33.5807418	-70.40824682	2022-10-23	139883924	None	needs_id
Leucheria tenuis	-33.579925	-70.39549167	2022-10-24	139876240	None	research
Cryptocarya alba	-33.579293	-70.381586	2022-10-20	139633979	open	research
Cryptocarya alba	-33.579007	-70.37841	2022-10-20	139633195	open	research
Strymon bicolor	-33.579007	-70.37841	2022-10-20	139633139	None	research
Leucocoryne ixioides	-33.578435	-70.377037	2022-10-20	139633048	None	research
Magnoliopsida	-33.578435	-70.377037	2022-10-20	139632977	open	needs_id
Strymon bicolor	-33.579651	-70.379269	2022-10-20	139632842	None	research
Liolaemus fuscus	-33.579723	-70.380041	2022-10-20	139632739	open	research
Phacelia	-33.579151	-70.380642	2022-10-20	139632664	None	needs_id
Oxalis arenaria	-33.580152	-70.382959	2022-10-20	139632578	None	research
Leucheria	-33.580152	-70.382959	2022-10-20	139632415	None	needs_id
Loasa triloba	-33.579723	-70.385191	2022-10-20	139632219	None	research
Alonsoa meridionalis	-33.580152	-70.38871	2022-10-20	139632155	None	research
Podanthus mitiqui	-33.579763	-70.392778	2022-10-20	139632049	None	research
Passeriformes	-33.579906	-70.396125	2022-10-20	139631877	open	needs_id
Glandularia	-33.580049	-70.39591	2022-10-20	139631570	None	needs_id
Vanessa terpsichore	-33.5657	-70.3971	2021-11-29	138402438	None	research
Alstroemeria ligtu	-33.5657	-70.3971	2021-11-29	138402437	None	needs_id
Troglodytes aedon	-33.5657	-70.3971	2021-11-29	138402436	open	research
Maytenus boaria	-33.58176167	-70.39451667	2022-10-08	138400431	open	research
Calceolaria	-33.5657	-70.3971	2021-11-29	138395756	None	needs_id
Leptoglossus chilensis	-33.5657	-70.3971	2021-11-29	138395755	None	research
Nyctopetus	-33.5657	-70.3971	2021-11-29	138395754	None	needs_id
Liolaemus tenuis	-33.5657	-70.3971	2021-11-29	138395749	None	research
Buprestinae	-33.5657	-70.3971	2021-11-29	138395747	None	needs_id
Bothriuridae	-33.5657	-70.3971	2021-11-29	138395741	None	needs_id
Platyaspistes	-33.57576134	-70.39855336	2021-11-29	138395740	None	needs_id
Platyaspistes	-33.57577073	-70.39853767	2021-11-29	138395739	None	needs_id
Eumeninae	-33.57990607	-70.39512126	2021-11-29	138395738	None	needs_id
Calceolaria	-33.57380588	-70.39827355	2021-11-29	138395737	None	needs_id
Ectinogonia buquetii	-33.57351857	-70.39830574	2021-11-29	138395736	None	research
Epiclines gayi	-33.58181111	-70.39451389	2022-10-08	138325501	None	needs_id
Liolaemus tenuis	-33.57793975	-70.39332761	2022-10-08	138261824	None	research
Liolaemus tenuis	-33.57639247	-70.39476857	2022-10-08	138261231	None	research
Asteraceae	-33.57728611	-70.39293611	2022-10-08	138176507	None	needs_id
Cupressus	-33.58049801	-70.39643462	2022-10-08	138054731	None	needs_id
Solanum furcatum	-33.58184167	-70.39470278	2022-10-08	138028459	None	research
Angiospermae	-33.58188333	-70.39478056	2022-10-08	138028318	None	needs_id
Ectinogonia buquetii	-33.58169167	-70.39484722	2022-10-08	138027810	None	research
Tropaeolum tricolor	-33.57746667	-70.3934	2022-10-08	138003667	None	research
Adiantum chilense	-33.57800278	-70.39376389	2022-10-08	138001848	None	research
Calceolaria corymbosa	-33.58168333	-70.39486111	2022-10-08	137998841	None	research
Plantae	-33.58150429	-70.39504943	2022-10-08	137997742	None	needs_id
Stellaria chilensis	-33.5806445	-70.39640223	2022-10-08	137997605	None	research
Aristotelia chilensis	-33.58183083	-70.39449702	2022-10-08	137994022	None	research
Maytenus boaria	-33.58187472	-70.39453436	2022-10-08	137993876	open	research
Plantae	-33.58197222	-70.39510278	2022-10-08	137993567	None	needs_id
Tropaeolum tricolor	-33.58175278	-70.39458056	2022-10-08	137993327	None	research
Quillaja saponaria	-33.58206716	-70.39498753	2022-10-08	137992212	open	research
Solanum crispum	-33.58205622	-70.39496326	2022-10-08	137991881	None	research
Eschscholzia californica	-33.58226462	-70.39472778	2022-10-08	137991845	None	research
Baccharis linearis	-33.58225269	-70.39475277	2022-10-08	137991791	None	research
Lithraea caustica	-33.58240659	-70.39463709	2022-10-08	137991735	open	research
Solanum crispum	-33.58182871	-70.39457482	2022-10-08	137991367	None	research
Eccremocarpus scaber	-33.58204633	-70.3946352	2022-10-08	137990965	None	research
Quillaja saponaria	-33.58236309	-70.39462907	2022-10-08	137989563	open	research
Eschscholzia californica	-33.58247873	-70.39450244	2022-10-08	137989020	None	research
Stellaria chilensis	-33.580608	-70.39640687	2021-10-16	137985377	None	research
Adiantum chilense sulphureum	-33.57746	-70.3931101	2021-10-16	137985005	None	research
Solanum crispum	-33.58215621	-70.39337708	2022-10-04	137974066	None	research
Viola subandina	-33.57661327	-70.39524165	2022-09-19	137018845	None	research
Olsynium scirpoideum	-33.57716114	-70.39563939	2022-09-10	137018549	None	research
Podanthus mitiqui	-33.57693455	-70.39548285	2022-09-10	137018354	None	research
Alstroemeria ligtu	-33.56262601	-70.39616618	2021-11-06	137018095	None	research
Oxalis	-33.57864742	-70.39120261	2022-09-10	137018013	None	needs_id
Blechnum hastatum	-33.57736597	-70.39268133	2022-09-10	137017887	None	research
Pasithea caerulea	-33.5796511	-70.38933285	2020-10-09	136978272	None	research
Tropaeolum tricolor	-33.58039532	-70.38820161	2020-10-09	136977849	None	research
Porlieria chilensis	-33.58749464	-70.37200787	2022-06-11	135925939	None	research
Astylus trifasciatus	-33.59424722	-70.38143056	2022-09-10	134842470	None	research
Cistanthe grandiflora	-33.57865556	-70.37706667	2022-09-10	134841816	None	needs_id
Trevoa quinquenervia	-33.56147778	-70.31890833	2022-09-10	134840757	None	research
Felidae	-33.56350833	-70.36608056	2022-09-10	134840756	None	needs_id
Liolaemus tenuis	-33.5546016	-70.39824467	2020-12-20	129277919	None	research
Ormiscodes	-33.5769	-70.3919	2022-07-03	125800473	None	needs_id
Agaricomycetes	-33.5769	-70.3919	2022-07-03	125800471	None	needs_id
Haplopappus	-33.57832167	-70.38266167	2022-07-02	125495994	None	needs_id
Blumenbachia silvestris	-33.57833833	-70.3823	2022-07-02	125495709	None	needs_id
Haplopappus humilis	-33.5521094	-70.39983557	2022-02-02	123632755	None	needs_id
Escallonia pulverulenta	-33.56900333	-70.39718667	2021-12-06	113177844	open	research
Trydarssus nobilitatus	-33.5769	-70.3919	2021-11-28	106814500	None	research
Brachystele unilateralis	-33.552105	-70.39939167	2022-02-01	106243486	None	research
Escallonia illinita	-33.56924167	-70.40017	2022-02-02	106218902	None	research
Gochnatia foliolosa	-33.55291667	-70.398955	2022-02-02	106217424	None	research
Pseudognaphalium	-33.55296333	-70.39900333	2022-02-02	106217334	None	needs_id
Gochnatia foliolosa	-33.552825	-70.39917833	2022-02-02	106217211	None	research
Haplopappus	-33.55234167	-70.399475	2022-02-02	106217179	None	needs_id
Liolaemus monticola	-33.55278833	-70.399125	2022-02-02	106216871	open	research
Liolaemus monticola	-33.55268	-70.39914667	2022-02-02	106216792	open	research
Zephyranthes advena	-33.55291667	-70.39839167	2022-02-02	106216788	None	research
Colliguaja salicifolia	-33.553375	-70.398895	2022-02-02	106216756	None	needs_id
Mutisia	-33.55272833	-70.399025	2022-02-04	106193904	None	needs_id
Leucheria	-33.55253833	-70.39875833	2022-02-04	106193860	None	needs_id
Alstroemeria revoluta	-33.57436333	-70.39876667	2022-01-11	104810946	None	research
Mutisia subulata	-33.580155	-70.39673667	2022-01-11	104810932	None	needs_id
Cryptocarya alba	-33.55849939	-70.39698303	2020-12-20	104466750	open	research
Erythranthe lutea	-33.57331916	-70.40068298	2020-12-26	103763466	None	research
Gunnera tinctoria	-33.57340855	-70.40064006	2020-12-26	103763465	None	research
Liolaemus tenuis	-33.57351582	-70.40059715	2020-12-26	103763464	None	research
Liolaemus tenuis	-33.57353106	-70.40064006	2020-12-26	103763463	None	research
Alstroemeria ligtu simsii	-33.5518862	-70.39961848	2021-11-26	103059356	None	research
Polistes buyssoni	-33.55733826	-70.39775292	2020-12-20	101318168	None	research
Alstroemeria ligtu simsii	-33.57977833	-70.39716333	2021-11-14	101166689	None	research
Cicadellidae	-33.57701333	-70.398125	2021-11-14	101166613	None	needs_id
Hippeastreae	-33.58022833	-70.39682	2021-11-14	101166523	None	needs_id
Halictinae	-33.57502	-70.39873667	2021-11-14	101166268	None	needs_id
Calendyma chiliensis	-33.57451167	-70.39868	2021-11-14	101166208	None	research
Liolaemus monticola	-33.56576167	-70.3963	2021-11-14	101166158	open	research
Chaetanthera multicaulis	-33.560895	-70.39663667	2021-11-14	101166104	None	research
Liolaemus lemniscatus	-33.57370333	-70.40031333	2021-11-14	101166038	None	research
Malamblia melas	-33.55587771	-70.3981601	2020-12-20	100998149	None	research
Solanum furcatum	-33.5598793	-70.38576508	2021-11-12	100956481	None	research
Hippeastreae	-33.57899494	-70.39484079	2021-11-07	100531184	None	needs_id
Leucocoryne ixioides	-33.57877136	-70.39445353	2021-11-07	100531084	None	research
Calceolaria corymbosa	-33.58088667	-70.39640833	2021-10-20	100015284	None	research
Callopistes maculatus	-33.55298667	-70.397775	2021-10-21	99951275	None	research
Leucheria	-33.55289667	-70.39785	2021-10-21	99951112	None	needs_id
Bryobia	-33.55315333	-70.397955	2021-10-22	99951023	None	needs_id
Insecta	-33.55297167	-70.39784167	2021-10-22	99951001	None	needs_id
Leucocoryne ixioides	-33.57681333	-70.3982	2021-10-20	99950949	None	research
Alonsoa meridionalis	-33.57691167	-70.3982	2021-10-20	99950886	None	research
Solenomelus pedunculatus	-33.57708333	-70.39811667	2021-10-20	99950848	None	research
Stachys grandidentata	-33.57664167	-70.3982	2021-10-20	99950755	None	research
Pasithea caerulea	-33.55723833	-70.39759667	2021-10-20	99949311	None	research
Ormiscodes	-33.56376667	-70.396155	2021-10-31	99949203	None	needs_id
Triptiloides randallae	-33.5778	-70.3847	2021-10-24	99354847	None	research
Calceolaria corymbosa	-33.580115	-70.393506	2021-10-24	99354842	None	research
Stachys grandidentata	-33.577025	-70.398225	2021-10-24	99347161	None	research
Leucocoryne ixioides	-33.577025	-70.39820833	2021-10-24	99347158	None	needs_id
Calceolaria corymbosa	-33.58083333	-70.39646111	2021-10-24	99347156	None	research
Cestrum parqui	-33.57234297	-70.39821297	2021-10-16	98665553	open	research
Stachys grandidentata	-33.55768297	-70.398149	2021-10-16	98665376	None	research
Adiantum chilense sulphureum	-33.55767	-70.398212	2021-10-16	98664535	None	research
Madia sativa	-33.56597697	-70.396906	2021-10-16	98664166	None	needs_id
Oxalis arenaria	-33.566271	-70.397108	2021-10-16	98663880	None	research
Calceolaria corymbosa	-33.58084397	-70.396381	2021-10-16	98663351	None	research
Stellaria chilensis	-33.580969	-70.396376	2021-10-16	98663013	None	research
Tanacetum parthenium	-33.55716531	-70.39798918	2020-12-20	93152284	None	needs_id
Medicago sativa	-33.55697577	-70.39777139	2020-12-20	93152166	open	needs_id
Tanacetum parthenium	-33.55451928	-70.39791749	2020-12-20	93047913	None	needs_id
Eccremocarpus scaber	-33.57021693	-70.39415815	2020-11-11	81179139	None	research
Macromphalia	-33.58132011	-70.39448556	2021-04-18	74372077	None	needs_id
Liolaemus chiliensis	-33.5738571	-70.40113997	2021-02-06	71767265	open	research
Crataegus monogyna	-33.57127676	-70.39798885	2021-03-04	71044016	None	research
Abrothrix longipilis	-33.58132195	-70.39457392	2021-03-06	70666065	open	research
Liolaemus chiliensis	-33.58124402	-70.39432682	2021-03-04	70560999	open	research
Sicarius thomisoides	-33.57324562	-70.40055122	2021-02-06	70443464	None	research
Grammostola	-33.58152613	-70.39461885	2020-12-17	66731539	None	needs_id
Liolaemus lemniscatus	-33.58139736	-70.39448708	2020-12-06	66622548	None	research
Liolaemus chiliensis	-33.56925593	-70.39716294	2020-02-02	64067461	None	research
Rhopospina fruticeti	-33.58140435	-70.39464902	2020-10-18	63476823	open	research
Liolaemus chiliensis	-33.58125044	-70.39474625	2020-10-16	62768582	open	research
Polythysana	-33.58218057	-70.39423127	2020-10-06	61959444	None	needs_id
Astylus trifasciatus	-33.58128632	-70.39441488	2020-08-31	58175898	None	research
Stereum	-33.56772474	-70.39873356	2013-07-15	57251454	None	needs_id
Phymatioderus bizonatus	-33.58123898	-70.39460301	2020-07-30	54844220	None	research
Liolaemus tenuis	-33.57406109	-70.40069701	2020-02-02	52440492	open	research
Hyles euphorbiarum	-33.56534393	-70.39737641	2016-11-06	52171243	None	needs_id
Anairetes parulus	-33.58047379	-70.39644194	2020-06-27	51128971	open	needs_id
Anyphaenidae	-33.56340241	-70.39453933	2019-08-02	47661947	None	needs_id
Jolivetia obscura	-33.56446999	-70.39299404	2019-08-02	47661945	None	research
Cnemalobus	-33.5655892	-70.39653178	2012-12-01	47583595	None	needs_id
Chloraea	-33.56333611	-70.39572778	2014-10-05	46974010	None	needs_id
Chloraea gavilu	-33.5633	-70.39584444	2014-10-05	46974006	None	needs_id
Chloraea	-33.56346111	-70.39588056	2014-10-05	46973859	None	needs_id
Rhopospina fruticeti	-33.58118787	-70.39443143	2020-05-15	46397079	open	research
Sephanoides sephaniodes	-33.58146496	-70.39463729	2020-05-08	45298554	open	research
Phrygilus gayi	-33.58117642	-70.39454643	2020-05-02	44644740	open	research
Liolaemus lemniscatus	-33.5814334	-70.39466746	2020-04-05	41455809	None	research
Phytotoma rara	-33.5815806	-70.39483745	2020-03-20	40290675	open	research
Amydetinae	-33.58125639	-70.39446762	2019-12-29	37085116	None	needs_id
Microdon violaceus	-33.57131989	-70.39864818	2019-11-24	36740786	None	research
Calendyma chiliensis	-33.5711989	-70.39898818	2019-11-24	36678216	None	research
Lasionota minor	-33.57144374	-70.39919523	2019-11-24	36678169	None	research
Saropogon gayi	-33.57254815	-70.39974565	2019-11-24	36678096	None	research
Gerstaeckerella chilensis	-33.57176551	-70.39932713	2019-11-24	36678009	None	research
Tyndaris planata	-33.57152588	-70.39853392	2019-11-24	36677976	None	research
Angiospermae	-33.5696689	-70.38143984	2019-08-31	35038235	None	needs_id
Acarospora socialis	-33.5691046	-70.38199774	2019-08-31	35038234	None	research
Orchidaceae	-33.56969237	-70.38231961	2019-08-31	35038233	None	needs_id
Rusavskia elegans	-33.57062206	-70.38279167	2019-08-31	35038232	None	needs_id
Tropaeolum tricolor	-33.57113604	-70.38144001	2019-08-31	35038228	None	research
Lasionota conjuncta	-33.57341003	-70.3998119	2019-01-07	32838007	None	research
Ctenoderus oyarcei	-33.57327125	-70.39909133	2019-01-07	32836513	None	needs_id
Callopistes maculatus	-33.55650954	-70.37742119	2019-03-17	21670448	None	research
Pycnothelidae	-33.55434333	-70.39799833	2014-08-31	19537016	None	needs_id
Myrmeleontidae	-33.55501824	-70.39444654	2014-08-27	16734676	None	needs_id
Liolaemus nitidus	-33.55464621	-70.39760113	2016-01-03	9702692	None	research
Tropaeolum tricolor	-33.57113604	-70.38144001	2019-08-31	35038228	None	research
Lasionota conjuncta	-33.57341003	-70.3998119	2019-01-07	32838007	None	research
Ctenoderus oyarcei	-33.57327125	-70.39909133	2019-01-07	32836513	None	needs_id
Callopistes maculatus	-33.55650954	-70.37742119	2019-03-17	21670448	None	research
Pycnothelidae	-33.55434333	-70.39799833	2014-08-31	19537016	None	needs_id
Myrmeleontidae	-33.55501824	-70.39444654	2014-08-27	16734676	None	needs_id
Liolaemus nitidus	-33.55464621	-70.39760113	2016-01-03	9702692	None	research